{
	"status": 200,
	"data": [
		{
			"title": "180",
			"release_year": "2011",
			"locations": "555 Market St.",
			"production_company": "SPI Cinemas",
			"director": "Jayendra",
			"writer": "Umarji Anuradha, Jayendra, Aarthi Sriram, & Suba",
			"actor_1": "Siddarth",
			"actor_2": "Nithya Menon",
			"actor_3": "Priya Anand",
			"latlng": {
				"latitude": 37.7900032,
				"longitude": -122.3999256,
				"country": "United States of America",
				"city": "San Francisco",
				"state": "California",
				"zipcode": "94105",
				"streetName": "Market Street",
				"streetNumber": "555",
				"countryCode": "us",
				"county": "San Francisco",
				"extra": {
					"confidence": 10,
					"confidenceKM": 0.25
				},
				"provider": "opencage"
			}
		},
		{
			"title": "180",
			"release_year": "2011",
			"locations": "Randall Museum",
			"production_company": "SPI Cinemas",
			"director": "Jayendra",
			"writer": "Umarji Anuradha, Jayendra, Aarthi Sriram, & Suba",
			"actor_1": "Siddarth",
			"actor_2": "Nithya Menon",
			"actor_3": "Priya Anand",
			"latlng": {
				"latitude": 37.7643981,
				"longitude": -122.4383671,
				"country": "United States of America",
				"city": "San Francisco",
				"state": "California",
				"zipcode": "94114",
				"streetName": "Museum Way",
				"streetNumber": "199",
				"countryCode": "us",
				"county": "San Francisco",
				"extra": {
					"confidence": 9,
					"confidenceKM": 0.5
				},
				"provider": "opencage"
			}
		},
		{
			"title": "180",
			"release_year": "2011",
			"locations": "City Hall",
			"production_company": "SPI Cinemas",
			"director": "Jayendra",
			"writer": "Umarji Anuradha, Jayendra, Aarthi Sriram, & Suba",
			"actor_1": "Siddarth",
			"actor_2": "Nithya Menon",
			"actor_3": "Priya Anand",
			"latlng": {
				"latitude": 44.8702513,
				"longitude": 13.8421062,
				"country": "Croatia",
				"city": "Pula",
				"zipcode": "52100",
				"streetNumber": "13",
				"countryCode": "hr",
				"county": "Istria County",
				"extra": {
					"confidence": 9,
					"confidenceKM": 0.5
				},
				"provider": "opencage"
			}
		},
		{
			"title": "180",
			"release_year": "2011",
			"locations": "Polk & Larkin Streets",
			"production_company": "SPI Cinemas",
			"director": "Jayendra",
			"writer": "Umarji Anuradha, Jayendra, Aarthi Sriram, & Suba",
			"actor_1": "Siddarth",
			"actor_2": "Nithya Menon",
			"actor_3": "Priya Anand"
		},
		{
			"title": "180",
			"release_year": "2011",
			"locations": "Epic Roasthouse (399 Embarcadero)",
			"production_company": "SPI Cinemas",
			"director": "Jayendra",
			"writer": "Umarji Anuradha, Jayendra, Aarthi Sriram, & Suba",
			"actor_1": "Siddarth",
			"actor_2": "Nithya Menon",
			"actor_3": "Priya Anand",
			"latlng": {
				"latitude": 37.7907487,
				"longitude": -122.3893537,
				"country": "United States of America",
				"city": "San Francisco",
				"state": "California",
				"zipcode": "94105",
				"streetName": "The Embarcadero",
				"streetNumber": "369",
				"countryCode": "us",
				"county": "San Francisco",
				"extra": {
					"confidence": 9,
					"confidenceKM": 0.5
				},
				"provider": "opencage"
			}
		},
		{
			"title": "180",
			"release_year": "2011",
			"locations": "Justin Herman Plaza",
			"production_company": "SPI Cinemas",
			"director": "Jayendra",
			"writer": "Umarji Anuradha, Jayendra, Aarthi Sriram, & Suba",
			"actor_1": "Siddarth",
			"actor_2": "Nithya Menon",
			"actor_3": "Priya Anand",
			"latlng": {
				"latitude": 37.7948572,
				"longitude": -122.3949009,
				"country": "United States of America",
				"city": "San Francisco",
				"state": "California",
				"countryCode": "us",
				"county": "San Francisco",
				"extra": {
					"confidence": 9,
					"confidenceKM": 0.5
				},
				"provider": "opencage"
			}
		},
		{
			"title": "180",
			"release_year": "2011",
			"locations": "200 block Market Street",
			"production_company": "SPI Cinemas",
			"director": "Jayendra",
			"writer": "Umarji Anuradha, Jayendra, Aarthi Sriram, & Suba",
			"actor_1": "Siddarth",
			"actor_2": "Nithya Menon",
			"actor_3": "Priya Anand",
			"latlng": {
				"latitude": -1.2839573,
				"longitude": 36.8195137,
				"country": "Kenya",
				"city": "Nairobi",
				"state": "Nairobi",
				"zipcode": "200",
				"streetName": "Market Street",
				"countryCode": "ke",
				"extra": {
					"confidence": 9,
					"confidenceKM": 0.5
				},
				"provider": "opencage"
			}
		},
		{
			"title": "180",
			"release_year": "2011",
			"locations": "Mason & California Streets (Nob Hill)",
			"production_company": "SPI Cinemas",
			"director": "Jayendra",
			"writer": "Umarji Anuradha, Jayendra, Aarthi Sriram, & Suba",
			"actor_1": "Siddarth",
			"actor_2": "Nithya Menon",
			"actor_3": "Priya Anand"
		},
		{
			"title": "180",
			"release_year": "2011",
			"locations": "Epic Roasthouse (399 Embarcadero)",
			"production_company": "SPI Cinemas",
			"director": "Jayendra",
			"writer": "Umarji Anuradha, Jayendra, Aarthi Sriram, & Suba ",
			"actor_1": "Siddarth",
			"actor_2": "Nithya Menon",
			"actor_3": "Priya Anand",
			"latlng": {
				"latitude": 37.7907487,
				"longitude": -122.3893537,
				"country": "United States of America",
				"city": "San Francisco",
				"state": "California",
				"zipcode": "94105",
				"streetName": "The Embarcadero",
				"streetNumber": "369",
				"countryCode": "us",
				"county": "San Francisco",
				"extra": {
					"confidence": 9,
					"confidenceKM": 0.5
				},
				"provider": "opencage"
			}
		},
		{
			"title": "180",
			"release_year": "2011",
			"locations": "Mason & California Streets (Nob Hill)",
			"production_company": "SPI Cinemas",
			"director": "Jayendra",
			"writer": "Umarji Anuradha, Jayendra, Aarthi Sriram, & Suba ",
			"actor_1": "Siddarth",
			"actor_2": "Nithya Menon",
			"actor_3": "Priya Anand"
		},
		{
			"title": "180",
			"release_year": "2011",
			"locations": "Justin Herman Plaza",
			"production_company": "SPI Cinemas",
			"director": "Jayendra",
			"writer": "Umarji Anuradha, Jayendra, Aarthi Sriram, & Suba ",
			"actor_1": "Siddarth",
			"actor_2": "Nithya Menon",
			"actor_3": "Priya Anand",
			"latlng": {
				"latitude": 37.7948572,
				"longitude": -122.3949009,
				"country": "United States of America",
				"city": "San Francisco",
				"state": "California",
				"countryCode": "us",
				"county": "San Francisco",
				"extra": {
					"confidence": 9,
					"confidenceKM": 0.5
				},
				"provider": "opencage"
			}
		},
		{
			"title": "180",
			"release_year": "2011",
			"locations": "200 block Market Street",
			"production_company": "SPI Cinemas",
			"director": "Jayendra",
			"writer": "Umarji Anuradha, Jayendra, Aarthi Sriram, & Suba ",
			"actor_1": "Siddarth",
			"actor_2": "Nithya Menon",
			"actor_3": "Priya Anand",
			"latlng": {
				"latitude": -1.2839573,
				"longitude": 36.8195137,
				"country": "Kenya",
				"city": "Nairobi",
				"state": "Nairobi",
				"zipcode": "200",
				"streetName": "Market Street",
				"countryCode": "ke",
				"extra": {
					"confidence": 9,
					"confidenceKM": 0.5
				},
				"provider": "opencage"
			}
		},
		{
			"title": "180",
			"release_year": "2011",
			"locations": "City Hall",
			"production_company": "SPI Cinemas",
			"director": "Jayendra",
			"writer": "Umarji Anuradha, Jayendra, Aarthi Sriram, & Suba ",
			"actor_1": "Siddarth",
			"actor_2": "Nithya Menon",
			"actor_3": "Priya Anand",
			"latlng": {
				"latitude": 44.8702513,
				"longitude": 13.8421062,
				"country": "Croatia",
				"city": "Pula",
				"zipcode": "52100",
				"streetNumber": "13",
				"countryCode": "hr",
				"county": "Istria County",
				"extra": {
					"confidence": 9,
					"confidenceKM": 0.5
				},
				"provider": "opencage"
			}
		},
		{
			"title": "180",
			"release_year": "2011",
			"locations": "Polk & Larkin Streets",
			"production_company": "SPI Cinemas",
			"director": "Jayendra",
			"writer": "Umarji Anuradha, Jayendra, Aarthi Sriram, & Suba ",
			"actor_1": "Siddarth",
			"actor_2": "Nithya Menon",
			"actor_3": "Priya Anand"
		},
		{
			"title": "180",
			"release_year": "2011",
			"locations": "Randall Museum",
			"production_company": "SPI Cinemas",
			"director": "Jayendra",
			"writer": "Umarji Anuradha, Jayendra, Aarthi Sriram, & Suba ",
			"actor_1": "Siddarth",
			"actor_2": "Nithya Menon",
			"actor_3": "Priya Anand",
			"latlng": {
				"latitude": 37.7643981,
				"longitude": -122.4383671,
				"country": "United States of America",
				"city": "San Francisco",
				"state": "California",
				"zipcode": "94114",
				"streetName": "Museum Way",
				"streetNumber": "199",
				"countryCode": "us",
				"county": "San Francisco",
				"extra": {
					"confidence": 9,
					"confidenceKM": 0.5
				},
				"provider": "opencage"
			}
		},
		{
			"title": "180",
			"release_year": "2011",
			"locations": "555 Market St.",
			"production_company": "SPI Cinemas",
			"director": "Jayendra",
			"writer": "Umarji Anuradha, Jayendra, Aarthi Sriram, & Suba ",
			"actor_1": "Siddarth",
			"actor_2": "Nithya Menon",
			"actor_3": "Priya Anand",
			"latlng": {
				"latitude": 37.7900032,
				"longitude": -122.3999256,
				"country": "United States of America",
				"city": "San Francisco",
				"state": "California",
				"zipcode": "94105",
				"streetName": "Market Street",
				"streetNumber": "555",
				"countryCode": "us",
				"county": "San Francisco",
				"extra": {
					"confidence": 10,
					"confidenceKM": 0.25
				},
				"provider": "opencage"
			}
		},
		{
			"title": "40 Days and 40 Nights",
			"release_year": "2002",
			"locations": "Café Trieste (609 Vallejo)",
			"fun_facts": "Francis Ford Coppola allegedly wrote large portions of \"The Godfather\" trilogy in Café Trieste.",
			"production_company": "Miramax Films",
			"distributor": "Miramax Films",
			"director": "Michael Lehmann",
			"writer": "Robert Perez",
			"actor_1": "Josh Hartnett",
			"actor_2": "Shaynnyn Sossamon",
			"latlng": {
				"latitude": 52.0387652,
				"longitude": 1.1410752,
				"country": "United Kingdom",
				"state": "England",
				"countryCode": "gb",
				"county": "Suffolk",
				"extra": {
					"confidence": 9,
					"confidenceKM": 0.5
				},
				"provider": "opencage"
			}
		},
		{
			"title": "40 Days and 40 Nights",
			"release_year": "2002",
			"locations": "The Walden House, Buena Vista Park",
			"fun_facts": "Established in 1867, Buena Vista Park is the oldest official park in San Francisco.",
			"production_company": "Miramax Films",
			"distributor": "Miramax Films",
			"director": "Michael Lehmann",
			"writer": "Robert Perez",
			"actor_1": "Josh Hartnett",
			"actor_2": "Shaynnyn Sossamon",
			"latlng": {
				"latitude": 39.233504,
				"longitude": -123.3897308,
				"country": "United States of America",
				"state": "California",
				"countryCode": "us",
				"county": "Mendocino County",
				"extra": {
					"confidence": 7,
					"confidenceKM": 5
				},
				"provider": "opencage"
			}
		},
		{
			"title": "40 Days and 40 Nights",
			"release_year": "2002",
			"locations": "The Walden House, Buena Vista Park",
			"fun_facts": "Established in 1867, Buena Vista Park is the oldest official park in San Francisco.",
			"production_company": "Miramax Films",
			"distributor": "Miramax Films",
			"director": "Michael Lehmann",
			"writer": "Robert Perez",
			"actor_1": "Josh Hartnett",
			"actor_2": "Shaynnyn Sossamon",
			"latlng": {
				"latitude": 39.233504,
				"longitude": -123.3897308,
				"country": "United States of America",
				"state": "California",
				"countryCode": "us",
				"county": "Mendocino County",
				"extra": {
					"confidence": 7,
					"confidenceKM": 5
				},
				"provider": "opencage"
			}
		},
		{
			"title": "40 Days and 40 Nights",
			"release_year": "2002",
			"locations": "Café Trieste (609 Vallejo)",
			"fun_facts": "Francis Ford Coppola allegedly wrote large portions of \"The Godfather\" trilogy in Café Trieste.",
			"production_company": "Miramax Films",
			"distributor": "Miramax Films",
			"director": "Michael Lehmann",
			"writer": "Robert Perez",
			"actor_1": "Josh Hartnett",
			"actor_2": "Shaynnyn Sossamon",
			"latlng": {
				"latitude": 52.0387652,
				"longitude": 1.1410752,
				"country": "United Kingdom",
				"state": "England",
				"countryCode": "gb",
				"county": "Suffolk",
				"extra": {
					"confidence": 9,
					"confidenceKM": 0.5
				},
				"provider": "opencage"
			}
		},
		{
			"title": "50 First Dates",
			"release_year": "2004",
			"locations": "Rainforest Café (145 Jefferson Street)",
			"production_company": "Columbia Pictures Corporation",
			"distributor": "Columbia Pictures",
			"director": "Peter Segal",
			"writer": "George Wing",
			"actor_1": "Adam Sandler",
			"actor_2": "Drew Barrymore"
		},
		{
			"title": "50 First Dates",
			"release_year": "2004",
			"locations": "Rainforest Café (145 Jefferson Street)",
			"production_company": "Columbia Pictures Corporation",
			"distributor": "Columbia Pictures",
			"director": "Peter Segal",
			"writer": "George Wing",
			"actor_1": "Adam Sandler",
			"actor_2": "Drew Barrymore"
		},
		{
			"title": "About a Boy",
			"release_year": "2014",
			"locations": "Broderick from Fulton to McAlister",
			"production_company": "NBC Studios",
			"distributor": "National Broadcasting Company",
			"director": "Mark J. Kunerth",
			"writer": "Jason Katims",
			"actor_1": "David Walton",
			"actor_2": "Minnie Driver",
			"latlng": {
				"latitude": 39.96118,
				"longitude": -82.99879,
				"country": "United States of America",
				"state": "Ohio",
				"countryCode": "us",
				"county": "Fairfield County",
				"extra": {
					"confidence": 3,
					"confidenceKM": 20
				},
				"provider": "opencage"
			}
		},
		{
			"title": "About a Boy",
			"release_year": "2014",
			"locations": "Powell from Bush and Sutter",
			"production_company": "NBC Studios",
			"distributor": "National Broadcasting Company",
			"director": "Mark J. Kunerth",
			"writer": "Jason Katims",
			"actor_1": "David Walton",
			"actor_2": "Minnie Driver"
		},
		{
			"title": "About a Boy",
			"release_year": "2014",
			"locations": "Crissy Field",
			"production_company": "NBC Studios",
			"distributor": "National Broadcasting Company",
			"director": "Mark J. Kunerth",
			"writer": "Jason Katims",
			"actor_1": "David Walton",
			"actor_2": "Minnie Driver",
			"latlng": {
				"latitude": 27.94888,
				"longitude": -81.69767,
				"country": "United States of America",
				"state": "Florida",
				"countryCode": "us",
				"county": "Polk County",
				"extra": {
					"confidence": 1,
					"confidenceKM": null
				},
				"provider": "opencage"
			}
		},
		{
			"title": "About a Boy",
			"release_year": "2014",
			"locations": "Broderick from Fulton to McAlister",
			"production_company": "NBC Studios",
			"distributor": "National Broadcasting Company",
			"director": "Mark J. Kunerth",
			"writer": "Jason Katims",
			"actor_1": "David Walton",
			"actor_2": "Minnie Driver",
			"latlng": {
				"latitude": 39.96118,
				"longitude": -82.99879,
				"country": "United States of America",
				"state": "Ohio",
				"countryCode": "us",
				"county": "Fairfield County",
				"extra": {
					"confidence": 3,
					"confidenceKM": 20
				},
				"provider": "opencage"
			}
		},
		{
			"title": "About a Boy",
			"release_year": "2014",
			"locations": "Crissy Field",
			"production_company": "NBC Studios",
			"distributor": "National Broadcasting Company",
			"director": "Mark J. Kunerth",
			"writer": "Jason Katims",
			"actor_1": "David Walton",
			"actor_2": "Minnie Driver",
			"latlng": {
				"latitude": 27.94888,
				"longitude": -81.69767,
				"country": "United States of America",
				"state": "Florida",
				"countryCode": "us",
				"county": "Polk County",
				"extra": {
					"confidence": 1,
					"confidenceKM": null
				},
				"provider": "opencage"
			}
		},
		{
			"title": "About a Boy",
			"release_year": "2014",
			"locations": "Powell from Bush and Sutter",
			"production_company": "NBC Studios",
			"distributor": "National Broadcasting Company",
			"director": "Mark J. Kunerth",
			"writer": "Jason Katims",
			"actor_1": "David Walton",
			"actor_2": "Minnie Driver"
		},
		{
			"title": "After the Thin Man",
			"release_year": "1936",
			"locations": "Coit Tower",
			"fun_facts": "The Tower was funded by a gift bequeathed by Lillie Hitchcock Coit, a socialite who reportedly liked to chase fires. Though the tower resembles a firehose nozzle, it was not designed this way.",
			"production_company": "Metro-Goldwyn Mayer",
			"distributor": "Metro-Goldwyn Mayer",
			"director": "W.S. Van Dyke",
			"writer": "Frances Goodrich",
			"actor_1": "William Powell",
			"actor_2": "Myrna Loy",
			"actor_3": "James Stewart",
			"latlng": {
				"latitude": 37.7923686,
				"longitude": -122.4100301,
				"country": "United States of America",
				"city": "San Francisco",
				"state": "California",
				"zipcode": "94108",
				"streetName": "Mason Street",
				"streetNumber": "950",
				"countryCode": "us",
				"county": "San Francisco",
				"extra": {
					"confidence": 9,
					"confidenceKM": 0.5
				},
				"provider": "opencage"
			}
		},
		{
			"title": "After the Thin Man",
			"release_year": "1936",
			"locations": "Coit Tower",
			"fun_facts": "The Tower was funded by a gift bequeathed by Lillie Hitchcock Coit, a socialite who reportedly liked to chase fires. Though the tower resembles a firehose nozzle, it was not designed this way.",
			"production_company": "Metro-Goldwyn Mayer",
			"distributor": "Metro-Goldwyn Mayer",
			"director": "W.S. Van Dyke",
			"writer": "Frances Goodrich",
			"actor_1": "William Powell",
			"actor_2": "Myrna Loy",
			"actor_3": "James Stewart",
			"latlng": {
				"latitude": 37.7923686,
				"longitude": -122.4100301,
				"country": "United States of America",
				"city": "San Francisco",
				"state": "California",
				"zipcode": "94108",
				"streetName": "Mason Street",
				"streetNumber": "950",
				"countryCode": "us",
				"county": "San Francisco",
				"extra": {
					"confidence": 9,
					"confidenceKM": 0.5
				},
				"provider": "opencage"
			}
		},
		{
			"title": "Age of Adaline",
			"release_year": "2015",
			"locations": "Driving various SF Streets",
			"production_company": "Lionsgate / Sidney Kimmel Entertainment / Lakeshore Entertainment",
			"director": "Lee Toland Krieger",
			"writer": "J. Mills Goodloe",
			"actor_1": "Blake Lively",
			"actor_2": "Harrison Ford",
			"actor_3": "Ellen Burstyn",
			"latlng": {
				"latitude": 37.7140291,
				"longitude": -122.3077942,
				"country": "United States of America",
				"state": "California",
				"zipcode": "94563",
				"countryCode": "us",
				"county": "Contra Costa County",
				"extra": {
					"confidence": 1,
					"confidenceKM": null
				},
				"provider": "opencage"
			}
		},
		{
			"title": "Age of Adaline",
			"release_year": "2015",
			"locations": "Montgomery/Green",
			"production_company": "Lionsgate / Sidney Kimmel Entertainment / Lakeshore Entertainment",
			"director": "Lee Toland Krieger",
			"writer": "J. Mills Goodloe",
			"actor_1": "Blake Lively",
			"actor_2": "Harrison Ford",
			"actor_3": "Ellen Burstyn"
		},
		{
			"title": "Age of Adaline",
			"release_year": "2015",
			"locations": "California @ Montgomery",
			"production_company": "Lionsgate / Sidney Kimmel Entertainment / Lakeshore Entertainment",
			"director": "Lee Toland Krieger",
			"writer": "J. Mills Goodloe",
			"actor_1": "Blake Lively",
			"actor_2": "Harrison Ford",
			"actor_3": "Ellen Burstyn",
			"latlng": {
				"latitude": 41.3448743,
				"longitude": -72.0921216,
				"country": "United States of America",
				"city": "New London",
				"state": "Connecticut",
				"zipcode": "06320",
				"countryCode": "us",
				"county": "New London County",
				"extra": {
					"confidence": 9,
					"confidenceKM": 0.5
				},
				"provider": "opencage"
			}
		},
		{
			"title": "Age of Adaline",
			"release_year": "2015",
			"locations": "Pier 50- end of the pier",
			"production_company": "Lionsgate / Sidney Kimmel Entertainment / Lakeshore Entertainment",
			"director": "Lee Toland Krieger",
			"writer": "J. Mills Goodloe",
			"actor_1": "Blake Lively",
			"actor_2": "Harrison Ford",
			"actor_3": "Ellen Burstyn"
		},
		{
			"title": "Age of Adaline",
			"release_year": "2015",
			"locations": "Plate Shots SF streets various",
			"production_company": "Lionsgate / Sidney Kimmel Entertainment / Lakeshore Entertainment",
			"director": "Lee Toland Krieger",
			"writer": "J. Mills Goodloe",
			"actor_1": "Blake Lively",
			"actor_2": "Harrison Ford",
			"actor_3": "Ellen Burstyn"
		},
		{
			"title": "Age of Adaline",
			"release_year": "2015",
			"locations": "Pier 50- end of the pier",
			"production_company": "Lionsgate / Sidney Kimmel Entertainment / Lakeshore Entertainment",
			"director": "Lee Toland Krieger",
			"writer": "J. Mills Goodloe",
			"actor_1": "Blake Lively",
			"actor_2": "Harrison Ford",
			"actor_3": "Ellen Burstyn"
		},
		{
			"title": "Age of Adaline",
			"release_year": "2015",
			"locations": "California @ Montgomery",
			"production_company": "Lionsgate / Sidney Kimmel Entertainment / Lakeshore Entertainment",
			"director": "Lee Toland Krieger",
			"writer": "J. Mills Goodloe",
			"actor_1": "Blake Lively",
			"actor_2": "Harrison Ford",
			"actor_3": "Ellen Burstyn",
			"latlng": {
				"latitude": 41.3448743,
				"longitude": -72.0921216,
				"country": "United States of America",
				"city": "New London",
				"state": "Connecticut",
				"zipcode": "06320",
				"countryCode": "us",
				"county": "New London County",
				"extra": {
					"confidence": 9,
					"confidenceKM": 0.5
				},
				"provider": "opencage"
			}
		},
		{
			"title": "Age of Adaline",
			"release_year": "2015",
			"locations": "Montgomery/Green",
			"production_company": "Lionsgate / Sidney Kimmel Entertainment / Lakeshore Entertainment",
			"director": "Lee Toland Krieger",
			"writer": "J. Mills Goodloe",
			"actor_1": "Blake Lively",
			"actor_2": "Harrison Ford",
			"actor_3": "Ellen Burstyn"
		},
		{
			"title": "Age of Adaline",
			"release_year": "2015",
			"locations": "Driving various SF Streets",
			"production_company": "Lionsgate / Sidney Kimmel Entertainment / Lakeshore Entertainment",
			"director": "Lee Toland Krieger",
			"writer": "J. Mills Goodloe",
			"actor_1": "Blake Lively",
			"actor_2": "Harrison Ford",
			"actor_3": "Ellen Burstyn",
			"latlng": {
				"latitude": 37.7140291,
				"longitude": -122.3077942,
				"country": "United States of America",
				"state": "California",
				"zipcode": "94563",
				"countryCode": "us",
				"county": "Contra Costa County",
				"extra": {
					"confidence": 1,
					"confidenceKM": null
				},
				"provider": "opencage"
			}
		},
		{
			"title": "Age of Adaline",
			"release_year": "2015",
			"locations": "Plate Shots SF streets various",
			"production_company": "Lionsgate / Sidney Kimmel Entertainment / Lakeshore Entertainment",
			"director": "Lee Toland Krieger",
			"writer": "J. Mills Goodloe",
			"actor_1": "Blake Lively",
			"actor_2": "Harrison Ford",
			"actor_3": "Ellen Burstyn"
		},
		{
			"title": "A Jitney Elopement",
			"release_year": "1915",
			"locations": "20th and Folsom Streets",
			"production_company": "The Essanay Film Manufacturing Company",
			"distributor": "General Film Company",
			"director": "Charles Chaplin",
			"writer": "Charles Chaplin",
			"actor_1": "Charles Chaplin",
			"actor_2": "Edna Purviance",
			"latlng": {
				"latitude": 37.7700421,
				"longitude": -122.4460642,
				"country": "United States of America",
				"city": "San Francisco",
				"state": "California",
				"zipcode": "94117",
				"streetName": "Haight Street",
				"streetNumber": "1437",
				"countryCode": "us",
				"county": "San Francisco",
				"extra": {
					"confidence": 9,
					"confidenceKM": 0.5
				},
				"provider": "opencage"
			}
		},
		{
			"title": "A Jitney Elopement",
			"release_year": "1915",
			"locations": "Golden Gate Park",
			"fun_facts": "During San Francisco's Gold Rush era, the Park was part of an area designated as the \"Great Sand Waste\".",
			"production_company": "The Essanay Film Manufacturing Company",
			"distributor": "General Film Company",
			"director": "Charles Chaplin",
			"writer": "Charles Chaplin",
			"actor_1": "Charles Chaplin",
			"actor_2": "Edna Purviance",
			"latlng": {
				"latitude": 41.2404871,
				"longitude": -95.8604941,
				"country": "United States of America",
				"city": "Council Bluffs",
				"state": "Iowa",
				"zipcode": "51501",
				"streetName": "22nd Avenue",
				"countryCode": "us",
				"county": "Pottawattamie County",
				"extra": {
					"confidence": 9,
					"confidenceKM": 0.5
				},
				"provider": "opencage"
			}
		},
		{
			"title": "A Jitney Elopement",
			"release_year": "1915",
			"locations": "Golden Gate Park",
			"fun_facts": "During San Francisco's Gold Rush era, the Park was part of an area designated as the \"Great Sand Waste\". ",
			"production_company": "The Essanay Film Manufacturing Company",
			"distributor": "General Film Company",
			"director": "Charles Chaplin",
			"writer": "Charles Chaplin",
			"actor_1": "Charles Chaplin",
			"actor_2": "Edna Purviance",
			"latlng": {
				"latitude": 41.2404871,
				"longitude": -95.8604941,
				"country": "United States of America",
				"city": "Council Bluffs",
				"state": "Iowa",
				"zipcode": "51501",
				"streetName": "22nd Avenue",
				"countryCode": "us",
				"county": "Pottawattamie County",
				"extra": {
					"confidence": 9,
					"confidenceKM": 0.5
				},
				"provider": "opencage"
			}
		},
		{
			"title": "A Jitney Elopement",
			"release_year": "1915",
			"locations": "20th and Folsom Streets",
			"production_company": "The Essanay Film Manufacturing Company",
			"distributor": "General Film Company",
			"director": "Charles Chaplin",
			"writer": "Charles Chaplin",
			"actor_1": "Charles Chaplin",
			"actor_2": "Edna Purviance",
			"latlng": {
				"latitude": 37.7700421,
				"longitude": -122.4460642,
				"country": "United States of America",
				"city": "San Francisco",
				"state": "California",
				"zipcode": "94117",
				"streetName": "Haight Street",
				"streetNumber": "1437",
				"countryCode": "us",
				"county": "San Francisco",
				"extra": {
					"confidence": 9,
					"confidenceKM": 0.5
				},
				"provider": "opencage"
			}
		},
		{
			"title": "Alcatraz",
			"release_year": "2012",
			"locations": "Chestnut St. from Larkin to Columbus",
			"production_company": "Bonanza Productions Inc.",
			"distributor": "Warner Bros. Television",
			"director": "J.J. Abrams",
			"writer": "Steven Lilien",
			"actor_1": "Sarah Jones",
			"actor_2": "Jorge Garcia",
			"latlng": {
				"latitude": 31.64466,
				"longitude": -81.38538,
				"country": "United States of America",
				"state": "Georgia",
				"countryCode": "us",
				"county": "McIntosh County",
				"extra": {
					"confidence": 9,
					"confidenceKM": 0.5
				},
				"provider": "opencage"
			}
		},
		{
			"title": "Alcatraz",
			"release_year": "2012",
			"locations": "Taylor St. from Broadway to Filbert",
			"production_company": "Bonanza Productions Inc.",
			"distributor": "Warner Bros. Television",
			"director": "J.J. Abrams",
			"writer": "Steven Lilien",
			"actor_1": "Sarah Jones",
			"actor_2": "Jorge Garcia",
			"latlng": {
				"latitude": 48.102644,
				"longitude": -123.451828,
				"country": "United States of America",
				"state": "Washington",
				"countryCode": "us",
				"extra": {
					"confidence": 5,
					"confidenceKM": 10
				},
				"provider": "opencage"
			}
		},
		{
			"title": "Alcatraz",
			"release_year": "2012",
			"locations": "Francisco St from Larkin to Polk",
			"production_company": "Bonanza Productions Inc.",
			"distributor": "Warner Bros. Television",
			"director": "J.J. Abrams",
			"writer": "Steven Lilien",
			"actor_1": "Sarah Jones",
			"actor_2": "Jorge Garcia"
		},
		{
			"title": "Alcatraz",
			"release_year": "2012",
			"locations": "Broadway from Mason to Taylor",
			"production_company": "Bonanza Productions Inc.",
			"distributor": "Warner Bros. Television",
			"director": "J.J. Abrams",
			"writer": "Steven Lilien",
			"actor_1": "Sarah Jones",
			"actor_2": "Jorge Garcia",
			"latlng": {
				"latitude": 55.9046278,
				"longitude": -3.2590836,
				"country": "United Kingdom",
				"city": "Edinburgh",
				"state": "Scotland",
				"zipcode": "EH13 0DP",
				"streetName": "Grant Avenue",
				"countryCode": "gb",
				"county": "City of Edinburgh",
				"extra": {
					"confidence": 9,
					"confidenceKM": 0.5
				},
				"provider": "opencage"
			}
		},
		{
			"title": "Alcatraz",
			"release_year": "2012",
			"locations": "Leavenworth from Filbert & Francisco St",
			"production_company": "Bonanza Productions Inc.",
			"distributor": "Warner Bros. Television",
			"director": "J.J. Abrams",
			"writer": "Steven Lilien",
			"actor_1": "Sarah Jones",
			"actor_2": "Jorge Garcia",
			"latlng": {
				"latitude": 43.14322,
				"longitude": -2.96204,
				"country": "Spain",
				"state": "Basque Country",
				"countryCode": "es",
				"county": "Araba / Álava",
				"extra": {
					"confidence": 7,
					"confidenceKM": 5
				},
				"provider": "opencage"
			}
		},
		{
			"title": "Alcatraz",
			"release_year": "2012",
			"locations": "Filbert St. from Jones to Mason",
			"production_company": "Bonanza Productions Inc.",
			"distributor": "Warner Bros. Television",
			"director": "J.J. Abrams",
			"writer": "Steven Lilien",
			"actor_1": "Sarah Jones",
			"actor_2": "Jorge Garcia"
		},
		{
			"title": "Alcatraz",
			"release_year": "2012",
			"locations": "Filbert St. from Jones to Mason",
			"production_company": "Bonanza Productions Inc.",
			"distributor": "Warner Bros. Television",
			"director": "J.J. Abrams",
			"writer": "Steven Lilien",
			"actor_1": "Sarah Jones",
			"actor_2": "Jorge Garcia"
		},
		{
			"title": "Alcatraz",
			"release_year": "2012",
			"locations": "Leavenworth from Filbert & Francisco St",
			"production_company": "Bonanza Productions Inc.",
			"distributor": "Warner Bros. Television",
			"director": "J.J. Abrams",
			"writer": "Steven Lilien",
			"actor_1": "Sarah Jones",
			"actor_2": "Jorge Garcia",
			"latlng": {
				"latitude": 43.14322,
				"longitude": -2.96204,
				"country": "Spain",
				"state": "Basque Country",
				"countryCode": "es",
				"county": "Araba / Álava",
				"extra": {
					"confidence": 7,
					"confidenceKM": 5
				},
				"provider": "opencage"
			}
		},
		{
			"title": "Alcatraz",
			"release_year": "2012",
			"locations": "Broadway from Mason to Taylor",
			"production_company": "Bonanza Productions Inc.",
			"distributor": "Warner Bros. Television",
			"director": "J.J. Abrams",
			"writer": "Steven Lilien",
			"actor_1": "Sarah Jones",
			"actor_2": "Jorge Garcia",
			"latlng": {
				"latitude": 55.9046278,
				"longitude": -3.2590836,
				"country": "United Kingdom",
				"city": "Edinburgh",
				"state": "Scotland",
				"zipcode": "EH13 0DP",
				"streetName": "Grant Avenue",
				"countryCode": "gb",
				"county": "City of Edinburgh",
				"extra": {
					"confidence": 9,
					"confidenceKM": 0.5
				},
				"provider": "opencage"
			}
		},
		{
			"title": "Alcatraz",
			"release_year": "2012",
			"locations": "Francisco St from Larkin to Polk",
			"production_company": "Bonanza Productions Inc.",
			"distributor": "Warner Bros. Television",
			"director": "J.J. Abrams",
			"writer": "Steven Lilien",
			"actor_1": "Sarah Jones",
			"actor_2": "Jorge Garcia"
		},
		{
			"title": "Alcatraz",
			"release_year": "2012",
			"locations": "Taylor St. from Broadway to Filbert",
			"production_company": "Bonanza Productions Inc.",
			"distributor": "Warner Bros. Television",
			"director": "J.J. Abrams",
			"writer": "Steven Lilien",
			"actor_1": "Sarah Jones",
			"actor_2": "Jorge Garcia",
			"latlng": {
				"latitude": 48.102644,
				"longitude": -123.451828,
				"country": "United States of America",
				"state": "Washington",
				"countryCode": "us",
				"extra": {
					"confidence": 5,
					"confidenceKM": 10
				},
				"provider": "opencage"
			}
		},
		{
			"title": "Alcatraz",
			"release_year": "2012",
			"locations": "Chestnut St. from Larkin to Columbus",
			"production_company": "Bonanza Productions Inc.",
			"distributor": "Warner Bros. Television",
			"director": "J.J. Abrams",
			"writer": "Steven Lilien",
			"actor_1": "Sarah Jones",
			"actor_2": "Jorge Garcia",
			"latlng": {
				"latitude": 31.64466,
				"longitude": -81.38538,
				"country": "United States of America",
				"state": "Georgia",
				"countryCode": "us",
				"county": "McIntosh County",
				"extra": {
					"confidence": 9,
					"confidenceKM": 0.5
				},
				"provider": "opencage"
			}
		},
		{
			"title": "Alexander's Ragtime Band",
			"release_year": "1938",
			"locations": "Fairmont Hotel (950 Mason Street, Nob Hill)",
			"fun_facts": "In 1945 the Fairmont hosted the United Nations Conference on International Organization as delegates arrived to draft a charter for the organization. The U.S. Secretary of State, Edward Stettinius drafted the charter in the hotel's Garden Room.",
			"production_company": "Twentieth Century Fox Film Corporation",
			"distributor": "Twentieth Century Fox Film Corporation",
			"director": "Henry King",
			"writer": "Kathryn Scola",
			"actor_1": "Tyrone Power",
			"actor_2": "Alice Faye",
			"actor_3": "Don Ameche",
			"latlng": {
				"latitude": 37.747987,
				"longitude": -122.4591161,
				"country": "United States of America",
				"city": "San Francisco",
				"state": "California",
				"zipcode": "94116",
				"streetName": "Laguna Honda Boulevard",
				"streetNumber": "380",
				"countryCode": "us",
				"county": "San Francisco",
				"extra": {
					"confidence": 8,
					"confidenceKM": 1
				},
				"provider": "opencage"
			}
		},
		{
			"title": "Alexander's Ragtime Band",
			"release_year": "1938",
			"locations": "Cliff House (1090 Point Lobos Avenue)",
			"fun_facts": "In 1887, the Cliff House was severely damaged when the schooner Parallel, abandoned and loaded with dynamite, ran aground on the rocks below.",
			"production_company": "Twentieth Century Fox Film Corporation",
			"distributor": "Twentieth Century Fox Film Corporation",
			"director": "Henry King",
			"writer": "Kathryn Scola",
			"actor_1": "Tyrone Power",
			"actor_2": "Alice Faye",
			"actor_3": "Don Ameche",
			"latlng": {
				"latitude": 37.7191,
				"longitude": -122.41664,
				"country": "United States of America",
				"state": "California",
				"countryCode": "us",
				"county": "San Francisco County",
				"extra": {
					"confidence": 8,
					"confidenceKM": 1
				},
				"provider": "opencage"
			}
		},
		{
			"title": "Alexander's Ragtime Band",
			"release_year": "1938",
			"locations": "San Francisco Bay",
			"production_company": "Twentieth Century Fox Film Corporation",
			"distributor": "Twentieth Century Fox Film Corporation",
			"director": "Henry King",
			"writer": "Kathryn Scola",
			"actor_1": "Tyrone Power",
			"actor_2": "Alice Faye",
			"actor_3": "Don Ameche",
			"latlng": {
				"latitude": 26.6436908,
				"longitude": -81.868114,
				"country": "United States of America",
				"city": "Fort Myers",
				"state": "Florida",
				"zipcode": "33901",
				"streetName": "Jackson Street",
				"countryCode": "us",
				"county": "Lee County",
				"extra": {
					"confidence": 9,
					"confidenceKM": 0.5
				},
				"provider": "opencage"
			}
		},
		{
			"title": "Alexander's Ragtime Band",
			"release_year": "1938",
			"locations": "San Francisco Bay",
			"production_company": "Twentieth Century Fox Film Corporation",
			"distributor": "Twentieth Century Fox Film Corporation",
			"director": "Henry King",
			"writer": "Kathryn Scola",
			"actor_1": "Tyrone Power",
			"actor_2": "Alice Faye",
			"actor_3": "Don Ameche",
			"latlng": {
				"latitude": 26.6436908,
				"longitude": -81.868114,
				"country": "United States of America",
				"city": "Fort Myers",
				"state": "Florida",
				"zipcode": "33901",
				"streetName": "Jackson Street",
				"countryCode": "us",
				"county": "Lee County",
				"extra": {
					"confidence": 9,
					"confidenceKM": 0.5
				},
				"provider": "opencage"
			}
		},
		{
			"title": "Alexander's Ragtime Band",
			"release_year": "1938",
			"locations": "Cliff House (1090 Point Lobos Avenue)",
			"fun_facts": "In 1887, the Cliff House was severely damaged when the schooner Parallel, abandoned and loaded with dynamite, ran aground on the rocks below.",
			"production_company": "Twentieth Century Fox Film Corporation",
			"distributor": "Twentieth Century Fox Film Corporation",
			"director": "Henry King",
			"writer": "Kathryn Scola",
			"actor_1": "Tyrone Power",
			"actor_2": "Alice Faye",
			"actor_3": "Don Ameche",
			"latlng": {
				"latitude": 37.7191,
				"longitude": -122.41664,
				"country": "United States of America",
				"state": "California",
				"countryCode": "us",
				"county": "San Francisco County",
				"extra": {
					"confidence": 8,
					"confidenceKM": 1
				},
				"provider": "opencage"
			}
		},
		{
			"title": "Alexander's Ragtime Band",
			"release_year": "1938",
			"locations": "Fairmont Hotel (950 Mason Street, Nob Hill)",
			"fun_facts": "In 1945 the Fairmont hosted the United Nations Conference on International Organization as delegates arrived to draft a charter for the organization. The U.S. Secretary of State, Edward Stettinius drafted the charter in the hotel's Garden Room.",
			"production_company": "Twentieth Century Fox Film Corporation",
			"distributor": "Twentieth Century Fox Film Corporation",
			"director": "Henry King",
			"writer": "Kathryn Scola",
			"actor_1": "Tyrone Power",
			"actor_2": "Alice Faye",
			"actor_3": "Don Ameche",
			"latlng": {
				"latitude": 37.747987,
				"longitude": -122.4591161,
				"country": "United States of America",
				"city": "San Francisco",
				"state": "California",
				"zipcode": "94116",
				"streetName": "Laguna Honda Boulevard",
				"streetNumber": "380",
				"countryCode": "us",
				"county": "San Francisco",
				"extra": {
					"confidence": 8,
					"confidenceKM": 1
				},
				"provider": "opencage"
			}
		},
		{
			"title": "All About Eve",
			"release_year": "1950",
			"locations": "Curran Theater (445 Geary Street)",
			"fun_facts": "Called the Shubert Theatre in the film.",
			"production_company": "Twentieth Century Fox Film Corp.",
			"distributor": "Twentieth Century Fox Film Corp.",
			"director": "Joseph L. Mankiewicz",
			"writer": "Joseph L. Mankiewicz",
			"actor_1": "Bette Davis",
			"actor_2": "Anne Baxter",
			"actor_3": "George Sanders",
			"latlng": {
				"latitude": 37.7434398,
				"longitude": -122.4134705,
				"country": "United States of America",
				"city": "San Francisco",
				"state": "California",
				"countryCode": "us",
				"county": "San Francisco",
				"extra": {
					"confidence": 9,
					"confidenceKM": 0.5
				},
				"provider": "opencage"
			}
		},
		{
			"title": "All About Eve",
			"release_year": "1950",
			"locations": "Curran Theater (445 Geary Street)",
			"fun_facts": "Called the Shubert Theatre in the film. ",
			"production_company": "Twentieth Century Fox Film Corp.",
			"distributor": "Twentieth Century Fox Film Corp.",
			"director": "Joseph L. Mankiewicz",
			"writer": "Joseph L. Mankiewicz",
			"actor_1": "Bette Davis",
			"actor_2": "Anne Baxter",
			"actor_3": "George Sanders",
			"latlng": {
				"latitude": 37.7434398,
				"longitude": -122.4134705,
				"country": "United States of America",
				"city": "San Francisco",
				"state": "California",
				"countryCode": "us",
				"county": "San Francisco",
				"extra": {
					"confidence": 9,
					"confidenceKM": 0.5
				},
				"provider": "opencage"
			}
		},
		{
			"title": "Always Be My Maybe",
			"release_year": "2019",
			"locations": "Pier 7",
			"production_company": "Isla Productions, LLC",
			"distributor": "Netflix",
			"director": "Nahnatchka Khan",
			"writer": "Michael Golamco, Randall Park, Ali Wong",
			"actor_1": "Ali Wong",
			"actor_2": "Randall Park",
			"actor_3": "Keanu Reeves",
			"latlng": {
				"latitude": 53.8300989,
				"longitude": -1.5168362,
				"country": "United Kingdom",
				"city": "Leeds",
				"state": "England",
				"zipcode": "LS8 1NW",
				"streetName": "Jackson Avenue",
				"countryCode": "gb",
				"county": "West Yorkshire",
				"extra": {
					"confidence": 9,
					"confidenceKM": 0.5
				},
				"provider": "opencage"
			}
		},
		{
			"title": "Always Be My Maybe",
			"release_year": "2019",
			"locations": "Haight St at Masonic",
			"production_company": "Isla Productions, LLC",
			"distributor": "Netflix",
			"director": "Nahnatchka Khan",
			"writer": "Michael Golamco, Randall Park, Ali Wong",
			"actor_1": "Ali Wong",
			"actor_2": "Randall Park",
			"actor_3": "Keanu Reeves",
			"latlng": {
				"latitude": 1,
				"longitude": 7,
				"country": "São Tomé and Príncipe",
				"countryCode": "st",
				"extra": {
					"confidence": 1,
					"confidenceKM": null
				},
				"provider": "opencage"
			}
		},
		{
			"title": "Always Be My Maybe",
			"release_year": "2019",
			"locations": "Pier 45 - Musee Mechanique",
			"production_company": "Isla Productions, LLC",
			"distributor": "Netflix",
			"director": "Nahnatchka Khan",
			"writer": "Michael Golamco, Randall Park, Ali Wong",
			"actor_1": "Ali Wong",
			"actor_2": "Randall Park",
			"actor_3": "Keanu Reeves"
		},
		{
			"title": "Always Be My Maybe",
			"release_year": "2019",
			"locations": "de Young Museum/Golden Gate Park",
			"production_company": "Isla Productions, LLC",
			"distributor": "Netflix",
			"director": "Nahnatchka Khan",
			"writer": "Michael Golamco, Randall Park, Ali Wong",
			"actor_1": "Ali Wong",
			"actor_2": "Randall Park",
			"actor_3": "Keanu Reeves"
		},
		{
			"title": "Always Be My Maybe",
			"release_year": "2019",
			"locations": "19th Ave Home",
			"production_company": "Isla Productions, LLC",
			"distributor": "Netflix",
			"director": "Nahnatchka Khan",
			"writer": "Michael Golamco, Randall Park, Ali Wong",
			"actor_1": "Ali Wong",
			"actor_2": "Randall Park",
			"actor_3": "Keanu Reeves"
		},
		{
			"title": "Always Be My Maybe",
			"release_year": "2019",
			"locations": "Golden Gate Music Concourse",
			"production_company": "Isla Productions, LLC",
			"distributor": "Netflix",
			"director": "Nahnatchka Khan",
			"writer": "Michael Golamco, Randall Park, Ali Wong",
			"actor_1": "Ali Wong",
			"actor_2": "Randall Park",
			"actor_3": "Keanu Reeves"
		},
		{
			"title": "Always Be My Maybe",
			"release_year": "2019",
			"locations": "Contemporary Jewish Museum",
			"fun_facts": "When Sasha, Keanu, Jenny and Marcus go for dinner together, the restaurant (known in the film as \"maximal\") is actually San Francisco's Contemporary Jewish Museum.",
			"production_company": "Isla Productions, LLC",
			"distributor": "Netflix",
			"director": "Nahnatchka Khan",
			"writer": "Michael Golamco, Randall Park, Ali Wong",
			"actor_1": "Ali Wong",
			"actor_2": "Randall Park",
			"actor_3": "Keanu Reeves"
		},
		{
			"title": "Always Be My Maybe",
			"release_year": "2019",
			"locations": "26th Ave and El Camino Del mar",
			"production_company": "Isla Productions, LLC",
			"distributor": "Netflix",
			"director": "Nahnatchka Khan",
			"writer": "Michael Golamco, Randall Park, Ali Wong",
			"actor_1": "Ali Wong",
			"actor_2": "Randall Park",
			"actor_3": "Keanu Reeves"
		},
		{
			"title": "Always Be My Maybe",
			"release_year": "2019",
			"locations": "Trax Bar, Haight St",
			"production_company": "Isla Productions, LLC",
			"distributor": "Netflix",
			"director": "Nahnatchka Khan",
			"writer": "Michael Golamco, Randall Park, Ali Wong",
			"actor_1": "Ali Wong",
			"actor_2": "Randall Park",
			"actor_3": "Keanu Reeves"
		},
		{
			"title": "Always Be My Maybe",
			"release_year": "2019",
			"locations": "22nd Ave Home",
			"production_company": "Isla Productions, LLC",
			"distributor": "Netflix",
			"director": "Nahnatchka Khan",
			"writer": "Michael Golamco, Randall Park, Ali Wong",
			"actor_1": "Ali Wong",
			"actor_2": "Randall Park",
			"actor_3": "Keanu Reeves"
		},
		{
			"title": "Always Be My Maybe",
			"release_year": "2019",
			"locations": "Palace of Fine Arts (3301 Lyon Street)",
			"production_company": "Isla Productions, LLC",
			"distributor": "Netflix",
			"director": "Nahnatchka Khan",
			"writer": "Michael Golamco, Randall Park, Ali Wong",
			"actor_1": "Ali Wong",
			"actor_2": "Randall Park",
			"actor_3": "Keanu Reeves"
		},
		{
			"title": "Always Be My Maybe",
			"release_year": "2019",
			"locations": "California Cable Car Line",
			"production_company": "Isla Productions, LLC",
			"distributor": "Netflix",
			"director": "Nahnatchka Khan",
			"writer": "Michael Golamco, Randall Park, Ali Wong",
			"actor_1": "Ali Wong",
			"actor_2": "Randall Park",
			"actor_3": "Keanu Reeves"
		},
		{
			"title": "Always Be My Maybe",
			"release_year": "2019",
			"locations": "Fort Point (Presidio, Golden Gate National Recreation Area)",
			"production_company": "Isla Productions, LLC",
			"distributor": "Netflix",
			"director": "Nahnatchka Khan",
			"writer": "Michael Golamco, Randall Park, Ali Wong",
			"actor_1": "Ali Wong",
			"actor_2": "Randall Park",
			"actor_3": "Keanu Reeves"
		},
		{
			"title": "Always Be My Maybe",
			"release_year": "2019",
			"locations": "Kearny btwn Columbus and Washington",
			"production_company": "Isla Productions, LLC",
			"distributor": "Netflix",
			"director": "Nahnatchka Khan",
			"writer": "Michael Golamco, Randall Park, Ali Wong",
			"actor_1": "Ali Wong",
			"actor_2": "Randall Park",
			"actor_3": "Keanu Reeves"
		},
		{
			"title": "Always Be My Maybe",
			"release_year": "2019",
			"locations": "Fairmont Hotel - Penthouse Suite",
			"fun_facts": "Keanu Reeves' penthouse suite scenes were filmed at San Francisco's Fairmont Hotel.",
			"production_company": "Isla Productions, LLC",
			"distributor": "Netflix",
			"director": "Nahnatchka Khan",
			"writer": "Michael Golamco, Randall Park, Ali Wong",
			"actor_1": "Ali Wong",
			"actor_2": "Randall Park",
			"actor_3": "Keanu Reeves"
		},
		{
			"title": "Always Be My Maybe",
			"release_year": "2019",
			"locations": "717 Grant Ave",
			"production_company": "Isla Productions, LLC",
			"distributor": "Netflix",
			"director": "Nahnatchka Khan",
			"writer": "Michael Golamco, Randall Park, Ali Wong",
			"actor_1": "Ali Wong",
			"actor_2": "Randall Park",
			"actor_3": "Keanu Reeves"
		},
		{
			"title": "Always Be My Maybe",
			"release_year": "2019",
			"locations": "Heart of the City Farmers Market at UN Plaza",
			"production_company": "Isla Productions, LLC",
			"distributor": "Netflix",
			"director": "Nahnatchka Khan",
			"writer": "Michael Golamco, Randall Park, Ali Wong",
			"actor_1": "Ali Wong",
			"actor_2": "Randall Park",
			"actor_3": "Keanu Reeves"
		},
		{
			"title": "Americana",
			"release_year": "2015",
			"locations": "Roxie Theater (3117 16th St.)",
			"production_company": "Sutro Films LLC",
			"director": "Zachary Shedd",
			"writer": "Zachary Shedd",
			"actor_1": "Kelli Garner",
			"actor_2": "Jack Davenport",
			"actor_3": "Peter Coyote"
		},
		{
			"title": "Americana",
			"release_year": "2015",
			"locations": "St. Francis Episcopal Church (399 San Fernando Way)",
			"production_company": "Sutro Films LLC",
			"director": "Zachary Shedd",
			"writer": "Zachary Shedd",
			"actor_1": "Kelli Garner",
			"actor_2": "Jack Davenport",
			"actor_3": "Peter Coyote"
		},
		{
			"title": "Americana",
			"release_year": "2015",
			"locations": "679 Madrid St",
			"production_company": "Sutro Films LLC",
			"director": "Zachary Shedd",
			"writer": "Zachary Shedd",
			"actor_1": "Kelli Garner",
			"actor_2": "Jack Davenport",
			"actor_3": "Peter Coyote"
		},
		{
			"title": "Americana",
			"release_year": "2015",
			"locations": "The San Francisco School (300 Gavin St.)",
			"production_company": "Sutro Films LLC",
			"director": "Zachary Shedd",
			"writer": "Zachary Shedd",
			"actor_1": "Kelli Garner",
			"actor_2": "Jack Davenport",
			"actor_3": "Peter Coyote"
		},
		{
			"title": "Americana",
			"release_year": "2015",
			"locations": "Variety Preview Room (582 Market St.)",
			"production_company": "Sutro Films LLC",
			"director": "Zachary Shedd",
			"writer": "Zachary Shedd",
			"actor_1": "Kelli Garner",
			"actor_2": "Jack Davenport",
			"actor_3": "Peter Coyote"
		},
		{
			"title": "Americana",
			"release_year": "2015",
			"locations": "33 Spruce St",
			"production_company": "Sutro Films LLC",
			"director": "Zachary Shedd",
			"writer": "Zachary Shedd",
			"actor_1": "Kelli Garner",
			"actor_2": "Jack Davenport",
			"actor_3": "Peter Coyote"
		},
		{
			"title": "Americana",
			"release_year": "2015",
			"locations": "Treasure Island",
			"production_company": "Sutro Films LLC",
			"director": "Zachary Shedd",
			"writer": "Zachary Shedd",
			"actor_1": "Kelli Garner",
			"actor_2": "Jack Davenport",
			"actor_3": "Peter Coyote"
		},
		{
			"title": "Americana",
			"release_year": "2015",
			"locations": "Laguna Honda Hospital; 375 Laguna Honda Blvd.",
			"production_company": "Sutro Films LLC",
			"director": "Zachary Shedd",
			"writer": "Zachary Shedd",
			"actor_1": "Kelli Garner",
			"actor_2": "Jack Davenport",
			"actor_3": "Peter Coyote"
		},
		{
			"title": "Americana",
			"release_year": "2015",
			"locations": "John Shelley Drive John McLaren Park",
			"production_company": "Sutro Films LLC",
			"director": "Zachary Shedd",
			"writer": "Zachary Shedd",
			"actor_1": "Kelli Garner",
			"actor_2": "Jack Davenport",
			"actor_3": "Peter Coyote"
		},
		{
			"title": "Americana",
			"release_year": "2015",
			"locations": "Jackson St. at Spruce",
			"production_company": "Sutro Films LLC",
			"director": "Zachary Shedd",
			"writer": "Zachary Shedd",
			"actor_1": "Kelli Garner",
			"actor_2": "Jack Davenport",
			"actor_3": "Peter Coyote"
		},
		{
			"title": "Americana",
			"release_year": "2015",
			"locations": "Palace of Fine Arts",
			"production_company": "Sutro Films LLC",
			"director": "Zachary Shedd",
			"writer": "Zachary Shedd",
			"actor_1": "Kelli Garner",
			"actor_2": "Jack Davenport",
			"actor_3": "Peter Coyote"
		},
		{
			"title": "Americana",
			"release_year": "2015",
			"locations": "Foreign Cinema (2534 Mission)",
			"production_company": "Sutro Films LLC",
			"director": "Zachary Shedd",
			"writer": "Zachary Shedd",
			"actor_1": "Kelli Garner",
			"actor_2": "Jack Davenport",
			"actor_3": "Peter Coyote"
		},
		{
			"title": "Americana",
			"release_year": "2015",
			"locations": "Coi Restaurant (373 Broadway)",
			"production_company": "Sutro Films LLC",
			"director": "Zachary Shedd",
			"writer": "Zachary Shedd",
			"actor_1": "Kelli Garner",
			"actor_2": "Jack Davenport",
			"actor_3": "Peter Coyote"
		},
		{
			"title": "Americana",
			"release_year": "2015",
			"locations": "Bernal Heights Park",
			"production_company": "Sutro Films LLC",
			"director": "Zachary Shedd",
			"writer": "Zachary Shedd",
			"actor_1": "Kelli Garner",
			"actor_2": "Jack Davenport",
			"actor_3": "Peter Coyote"
		},
		{
			"title": "Americana",
			"release_year": "2015",
			"locations": "20th St and Illinois/Faxon St. and Kenwood/Glenbrook at Mt. Springs",
			"production_company": "Sutro Films LLC",
			"director": "Zachary Shedd",
			"writer": "Zachary Shedd",
			"actor_1": "Kelli Garner",
			"actor_2": "Jack Davenport",
			"actor_3": "Peter Coyote"
		},
		{
			"title": "Americana",
			"release_year": "2015",
			"locations": "3232 Jackson Ave.",
			"production_company": "Sutro Films LLC",
			"director": "Zachary Shedd",
			"writer": "Zachary Shedd",
			"actor_1": "Kelli Garner",
			"actor_2": "Jack Davenport",
			"actor_3": "Peter Coyote"
		},
		{
			"title": "Americana",
			"release_year": "2015",
			"locations": "Romolo Place @ Fresno St.",
			"production_company": "Sutro Films LLC",
			"director": "Zachary Shedd",
			"writer": "Zachary Shedd",
			"actor_1": "Kelli Garner",
			"actor_2": "Jack Davenport",
			"actor_3": "Peter Coyote"
		},
		{
			"title": "Americana",
			"release_year": "2015",
			"locations": "St. Francis Episcopal Church (399 San Fernando Way)",
			"production_company": "Sutro Films LLC",
			"director": "Zachary Shedd",
			"writer": "Zachary Shedd",
			"actor_1": "Kelli Garner",
			"actor_2": "Jack Davenport",
			"actor_3": "Peter Coyote"
		},
		{
			"title": "Americana",
			"release_year": "2015",
			"locations": "Romolo Place @ Fresno St.",
			"production_company": "Sutro Films LLC",
			"director": "Zachary Shedd",
			"writer": "Zachary Shedd",
			"actor_1": "Kelli Garner",
			"actor_2": "Jack Davenport",
			"actor_3": "Peter Coyote"
		}
	],
	"count": 100
}
